osm_id,lon,lat,name
29579775,4.4656938,51.8874246,Van Blommesteynweg
30545941,4.3172163,52.0838118,Malieveld
31205407,4.3454691,52.0497604,Broekpolder
44382281,4.5230465,51.9166196,Burgemeester Oudlaan
44424839,4.5135023,51.9253935,Voorschoterlaan
44561355,4.4894464,51.9515503,Bergse Plaslaan
46326414,4.8521827,52.3580481,Surinameplein
46350382,4.9193627,52.3635043,Alexanderplein
46364422,4.8890495,52.3670399,Koningsplein
46369643,4.9054998,52.3679018,Meester Visserplein
46432024,4.8792184,52.3813078,Nassaukade
46462976,4.8851447,52.388085,Zoutkeetsgracht
60109495,4.275543,52.0760207,Copernicusplein
60109496,4.2749892,52.0760003,Copernicusplein
148726445,4.8749226,52.3844125,Van Limburg Stirumplein
237938749,4.8936441,52.3735332,Dam
237962650,4.9289455,52.3609302,Dapperstraat
237962728,4.8828309,52.3527591,Roelof Hartplein
237962735,4.8820107,52.3532388,Roelof Hartplein
237962753,4.8797557,52.3565391,Museumplein
240311313,4.8791849,52.3785896,Marnixplein
240316865,4.8785423,52.3783985,Marnixplein
240316872,4.8753317,52.3785638,Frederik Hendrikplantsoen
240316873,4.872968,52.375006,Hugo de Grootplein
240316874,4.8725475,52.3742938,Hugo de Grootplein
240485142,4.8917057,52.3528806,De Pijp
241392441,4.9324425,52.3659327,Zeeburgerdijk
241392462,4.9271028,52.3659019,Pontanusstraat
241713411,4.8991772,52.3781873,Centraal Station
241772055,4.9020044,52.3669888,Waterlooplein
241775832,4.887104,52.3609734,Spiegelgracht
250176659,4.3954259,51.9242802,Parkweg
250212613,4.3758987,51.9295333,Prinses Beatrixlaan
250212622,4.3711289,51.9375712,Bachplein
250212728,4.374701,51.9443599,Harreweg
250750076,4.8992335,52.3782285,Centraal Station
255100912,4.368665,51.9421706,Boeier
255281298,4.4355491,51.9157138,P.C. Hooftplein
255281338,4.4024565,51.9157221,Koemarkt
260046967,4.2896431,52.0172229,Dorpskade
260047222,4.2950646,52.0196225,Parijsplein
260047224,4.2962395,52.0200133,Parijsplein
260047249,4.3061364,52.0226064,Eikelenburg
260047803,4.2945506,52.0219351,Lage Veld
260048433,4.3189658,52.028133,Weidedreef
260048455,4.3170549,52.0346521,In de Bogaard
260049134,4.3260108,52.0394775,Treubstraat
260049135,4.3262901,52.0392805,Treubstraat
260108353,4.3311316,52.0372369,Volmerlaan
260108379,4.336569,52.0442344,Handelskade
260108381,4.3356003,52.0449194,Handelskade
260108392,4.3308178,52.0483829,Generaal Spoorlaan
260562759,4.3124204,52.0246956,Aletta Jacobsstraat
260781989,4.3390377,52.0415493,Patentlaan
261974815,4.3176623,52.0324691,Admiraal Helfrichsingel
261976210,4.3220846,52.0373832,Station Rijswijk
266653886,4.3833116,52.0488726,Gruttosingel
266865397,4.3269932,52.0608625,Lorentzplein
266865431,4.3251051,52.0632222,Oudemansstraat
266865459,4.3219045,52.0659259,Leeghwaterplein
267551346,4.322846,52.0589325,Jonckbloetplein
267551347,4.3273741,52.052685,Van Vredenburchweg
267551374,4.3251073,52.0732355,Rijswijkseplein
267551397,4.3233237,52.0805047,Centraal Station
267551407,4.328173,52.0747599,Weteringplein
270465580,4.401143,52.0718189,Oude Middenweg
275930365,4.9348327,52.3730107,Rietlandpark
283241099,4.8798854,52.3630689,Stadhouderskade
283601358,4.8501831,52.3515309,Hoofddorpplein
283603496,4.849571,52.3512116,Hoofddorpplein
285869162,4.8909623,52.3599031,Vijzelgracht
286316889,4.9520446,52.365193,Flevopark
286610403,4.8716334,52.3027943,Oranjebaan
286610407,4.8678081,52.2964918,Ouderkerkerlaan
286611597,4.8611766,52.2867566,Marne
287763010,4.8342872,52.351487,Heemstedestraat
287765628,4.8242594,52.3466865,Louwesweg
289344481,4.8767774,52.3426151,Prinses Irenestraat
289364883,4.8922158,52.3403205,Europaplein
289378508,4.857542,52.3492444,Haarlemmermeerstation
289378915,4.8796055,52.3560111,Museumplein
289426088,4.8156883,52.3464422,Laan van Vlaanderen
289426091,4.8110474,52.3463857,Kasterleepark
289428760,4.8038184,52.3449363,Oudenaardeplantsoen
289430207,4.8041042,52.3450309,Oudenaardeplantsoen
289818100,4.9134308,52.3772063,Muziekgebouw
289980226,4.8522191,52.2804726,Brink
289980799,4.8458833,52.283125,Poortwachter
290080777,4.8310348,52.2748113,Westwijk
290262034,4.3147921,52.06603,Jacob Catsstraat
290262036,4.3146671,52.06589,Jacob Catsstraat
290410504,4.318439,52.0758122,Bierkade
290918279,4.5224294,51.9127304,Lage Filterweg
290930270,4.8401257,52.3579358,Derkinderenstraat
290930272,4.8345562,52.3578726,Station Lelylaan
290931124,4.4918824,51.9080755,Wilhelminaplein
290931857,4.8532008,52.36398,Postjesweg
290945410,4.5213373,51.9153635,Oude Plantage
290945574,4.5187871,51.9166457,Woudestein
290945577,4.519041,51.9164901,Woudestein
290946461,4.5065643,51.921453,Willem Ruyslaan
290955747,4.8106454,52.3564782,Meer en Vaart
290957004,4.8509943,52.3580676,Surinameplein
290963343,4.8455583,52.3515604,Westlandgracht
291646148,4.8707862,52.3560191,Cornelis Schuytstraat
291660551,4.8796723,52.3584249,Van Baerlestraat
291660674,4.8833765,52.3600994,Rijksmuseum
291914484,4.8892778,52.3690795,Spui
292804256,4.3348617,52.0799996,Beatrixkwartier
293359901,4.3098288,52.0802588,Kneuterdijk
293359960,4.3089829,52.0810609,Kneuterdijk
293362231,4.2819743,52.0994991,Frankenslag
293362233,4.278687,52.1022048,Duinstraat
293362237,4.2769521,52.1085905,Badhuiskade
293883236,4.8378568,52.284318,Spinnerij
293883917,4.8450497,52.283328,Poortwachter
293884152,4.8513367,52.2806292,Brink
293884357,4.8569707,52.2808905,Meent
293884976,4.8591035,52.2842159,Gondel
293885458,4.8642396,52.2909513,Sportlaan
293886001,4.870108,52.3002111,Amstelveen Centrum
293886212,4.867162,52.3012428,Binnenhof
293893491,4.8688244,52.3310023,A. J. Ernststraat
293893586,4.8688108,52.3346902,De Boelelaan / VU
294091330,4.8686793,52.3382075,Parnassusweg
295540833,4.8400481,52.2920559,Noorddammerlaan
295552866,4.8552783,52.3153498,Amsterdamseweg
296265477,4.8188378,52.3751688,Burgemeester Roellstraat
296265564,4.8446678,52.3694204,Admiraal Helfrichstraat
296265916,4.8029118,52.3772607,Lambertus Zijlplein
296266579,4.9474873,52.3432036,Brinkstraat
296703876,4.8032411,52.3590594,Osdorpplein
296992497,4.8565436,52.3279919,Van Nijenrodeweg
296996392,4.8544501,52.3352796,Jollenpad
296999161,4.8524016,52.3411779,IJsbaanpad
297095283,4.8708131,52.3710506,Bilderdijkstraat
297099561,4.9373436,52.3768178,Azartplein
297099562,4.9373253,52.3766133,Azartplein
297880116,4.3461367,52.0334059,Verffabriek
297934760,4.8730423,52.3467629,Minervaplein
297934761,4.8764585,52.3468468,Beethovenstraat
297934763,4.8772029,52.3488181,Gerrit van der Veenstraat
297934764,4.8773711,52.3492143,Gerrit van der Veenstraat
302344233,4.8479601,52.3015775,Station Amstelveen
303720945,4.8737141,52.3407999,Station Zuid
304076333,4.9263002,52.3681426,Eerste Coehoornstraat
304965084,4.8689764,52.3248943,Van Boshuizenstraat
304967401,4.8721898,52.3124477,Zonnestein
304967402,4.8722652,52.3121652,Zonnestein
305163755,4.9334523,52.3732207,Rietlandpark
305789993,4.8658659,52.3462934,Olympiaplein
310569749,4.8983266,52.3638109,Keizersgracht
310569756,4.8992078,52.3600792,Frederiksplein
310569757,4.8992709,52.3581119,Stadhouderskade
310573222,4.9011391,52.3446536,Waalstraat
310573223,4.9005648,52.344413,Waalstraat
310573224,4.8962959,52.3428471,Maasstraat
310573225,4.8968537,52.3430896,Maasstraat
310573227,4.8930068,52.3419192,Dintelstraat
310573230,4.8906037,52.336927,Station RAI
317326527,4.4067715,51.9210612,Station Schiedam Centrum
317956000,4.9008656,52.3546855,Van Woustraat
317956001,4.9015291,52.3549313,Van Woustraat
319641124,4.9248123,52.3668676,Hoogte Kadijk
323088655,4.465004,51.934081,Schieweg
323090730,4.4691598,51.952811,Teldersweg
323091210,4.4680506,51.9582315,Kastanjeplein
330028855,4.9293975,52.3700769,Eerste Leeghwaterstraat
333779868,4.4988794,51.9058016,Lodewijk Pincoffsweg
333780704,4.5036991,51.903747,Vuurplaat
333780725,4.5119478,51.9002772,Varkenoordseviaduct
333781147,4.5240466,51.895787,Stadion Feyenoord
349170393,4.2628342,52.0502843,Dedemsvaartweg
357256249,5.079675,52.0407051,
357256254,5.0798026,52.0406715,
360384342,4.2755683,52.0683902,Valkenboslaan
360384355,4.2790025,52.0693488,Fahrenheitstraat
360423745,4.2827404,52.0480242,Loevesteinlaan
360426820,4.3004895,52.0505316,Erasmusplein
360748935,4.2660018,52.0527633,Zuidwoldepad
360763373,4.266472,52.0654222,Laan van Eik en Duinen
360763376,4.2626841,52.0639186,Nieuwendamlaan
360763394,4.2541614,52.060084,Walnootstraat
360764389,4.2454462,52.0671258,De Savornin Lohmanplein
360766174,4.2619124,52.0732763,Azaleastraat
364665040,4.2609768,52.0366668,Beresteinlaan
364665041,4.261944,52.0371386,Beresteinlaan
364665042,4.266319,52.0394993,Revalidatiecentrum
364665043,4.267368,52.0400162,Revalidatiecentrum
364665044,4.2696135,52.0411996,Wolweversgaarde
364669055,4.2761226,52.0445789,Leggelostraat
364671416,4.2913331,52.0526655,Zuiderpark
364796732,4.2990837,52.0554224,Anna Bijnslaan
364796753,4.3003171,52.0558055,Anna Bijnslaan
364796761,4.2960453,52.0680126,Delftselaan
364796765,4.2944524,52.0694992,Delftselaan
364796781,4.2942431,52.0685187,Delftselaan
364796806,4.285041,52.0667318,Nunspeetlaan
364797099,4.2847606,52.0666071,Nunspeetlaan
364802343,4.277333,52.0647222,Tienhovenselaan
364802346,4.270767,52.0622299,Monnickendamplein
364802358,4.2657892,52.0571982,Leyenburg
364802370,4.2585486,52.0480533,De Rade
364802376,4.2554061,52.0460608,Bouwlustlaan
364802384,4.2499122,52.042573,Beresteinlaan
364802385,4.2453619,52.0393982,De Uithof
364812297,4.3077325,52.0547413,Station Moerwijk
364812334,4.3115679,52.0557746,Alberdingk Thijmstraat
364812373,4.2990498,52.0498053,Erasmusplein
364812375,4.2959655,52.048121,Geysterenweg
364812376,4.2935673,52.0468437,Remmersteinstraat
364812377,4.2902549,52.0451095,Hardenbroekstraat
364813868,4.3031076,52.0519293,Heeswijkplein
367033454,4.266191,52.0528772,Zuidwoldepad
367051587,4.2383538,52.0507172,Kapelaan Meereboerweg
367051601,4.236561,52.0489912,Kraayensteinlaan
367702771,4.2885006,52.0169885,Dorpskade
371226400,4.8074931,52.359788,Ruimzicht
371265387,4.8843839,52.3650035,Prinsengracht
371265504,4.8863423,52.3659237,Keizersgracht
373287954,4.2326715,52.0547664,Arnold Spoelplein
373288026,4.2278919,52.0575086,Pisuissestraat
373288030,4.2326793,52.0587376,Mozartlaan
373288033,4.2317266,52.0607249,Mozartlaan
373288042,4.2308069,52.0626955,Heliotrooplaan
373318365,4.2344748,52.0639007,Muurbloemweg
373318372,4.2394177,52.0653461,Hoefbladlaan
373335812,4.2517704,52.0694355,Appelstraat
373335843,4.2556546,52.0709697,Zonnebloemstraat
373335848,4.2570245,52.0714467,Zonnebloemstraat
373335852,4.2675925,52.0752536,Goudenregenstraat
373335905,4.2711173,52.0764988,Fahrenheitstraat
373335909,4.2765843,52.0784879,Valkenbosplein
373340836,4.2832266,52.0806116,Conradkade
373340863,4.2885791,52.0821174,Waldeck Pyrmontkade (Zuid)
373340880,4.2880077,52.0815417,Van Speijkstraat (West)
373396818,4.2852545,52.0709271,De la Reyweg
373403245,4.2525435,52.0881406,Markenseplein
373409669,4.2555761,52.0863266,Tholensestraat
373409676,4.25753,52.0850314,Doctor van Welylaan
373409682,4.2583065,52.0843781,Doctor van Welylaan
373409693,4.2600949,52.0804612,Sportlaan
373409700,4.2604404,52.0801733,Sportlaan
373409711,4.2800627,52.07544,Weimarstraat
373409717,4.2817741,52.073467,Cartesiusstraat
373409728,4.2851539,52.0706234,Loosduinseweg
373418626,4.2934301,52.0731652,Monstersestraat
373428615,4.2469211,52.0568651,Buitentuinen
373436902,4.2418546,52.0553622,Burgemeester Hovylaan
373436912,4.2625495,52.063835,Nieuwendamlaan
373436922,4.2665859,52.0655075,Laan van Eik en Duinen
373436925,4.2711484,52.0669505,Kamperfoeliestraat
373436930,4.2772814,52.0688877,Valkenboslaan
373436935,4.2802316,52.0696604,Fahrenheitstraat
373436938,4.2991405,52.0733174,MCH Westeinde
378269455,4.2818579,52.0666753,Dierenselaan
388184245,5.0049024,52.3511345,IJburg
409816890,4.2940452,52.0229048,Lage Veld
409816891,4.2900549,52.0265167,Oosteinde
409816892,4.2898952,52.0266373,Oosteinde
410655124,4.3281634,52.075077,Weteringplein
418653418,4.8582496,52.3452494,Olympiaweg
427558737,4.9010713,52.3777958,Centraal Station
427558833,4.9009386,52.3778527,Centraal Station
427560648,4.9071284,52.3610021,Weesperplein
427560737,4.9091579,52.3614091,Weesperplein
427561909,4.9093587,52.3572784,Wibautstraat
427562504,4.9328494,52.3612127,Muiderpoortstation
432441438,4.9153292,52.3650175,Artis
434142267,4.9110036,52.3471066,Amsteldijk
434142268,4.9003235,52.3468399,Waalstraat
434142269,4.8997334,52.3465648,Waalstraat
434142270,4.8948663,52.3467988,Maasstraat
434142271,4.8953336,52.3470692,Maasstraat
434142275,4.8914218,52.3472928,Scheldestraat
434142276,4.8912364,52.3474614,Scheldestraat
434397628,4.8510673,52.3826951,Wiltzanghlaan
434397629,4.8541456,52.3809576,Bos en Lommerweg
434397631,4.8568798,52.3789964,Karel Doormanstraat
434397633,4.8577243,52.3773535,De Rijpstraat
434397634,4.8584487,52.3751311,Jan van Galenstraat
434397635,4.8586577,52.3743214,Jan van Galenstraat
434397637,4.859985,52.371503,Admiraal de Ruijterweg
434398865,4.8636349,52.3706925,Willem de Zwijgerlaan
434401079,4.8704083,52.3706794,De Clercqstraat
434414719,4.9388456,52.3735622,C. van Eesterenlaan
434430962,4.9192366,52.3638735,Alexanderplein
434441207,4.9137328,52.3623708,Korte 's-Gravesandestraat
434441208,4.9153048,52.3626757,Korte 's-Gravesandestraat
434441211,4.9022969,52.36003,Oosteinde
434441216,4.8921,52.3594985,Vijzelgracht
434441223,4.8788587,52.3780596,Marnixplein
434441252,4.8769825,52.3832328,De Wittenkade
434441260,4.8698687,52.3842739,Van Hallstraat
434493364,4.9657016,52.3375163,Nicolaas Lublinkstraat
434497010,4.9694509,52.3369217,Sniep
434497040,4.9546712,52.3395989,Arent Krijtsstraat
434504353,4.9354103,52.350733,Hugo de Vrieslaan
434507136,4.9308671,52.353563,Hogeweg
434507138,4.9257142,52.3601093,Linnaeusstraat
434507140,4.92547,52.3597959,Wijttenbachstraat
434509970,4.911337,52.3665909,Artis
434524953,4.9476406,52.3647559,Insulindeweg
434524954,4.9441058,52.3622716,Soembawastraat
434524956,4.9401787,52.361721,Molukkenstraat
434524959,4.9167422,52.3590732,Beukenweg
434552819,4.8908352,52.3737755,Dam
434560935,4.8809562,52.381394,Nieuwe Willemstraat
434598996,4.7747567,52.3537327,Matterhorn
434598999,4.7770976,52.352828,Pilatus
434599001,4.7836582,52.3501979,Inaristraat
434599008,4.7888748,52.3498075,Ecuplein
434599011,4.7951195,52.3510322,Baden Powellweg
434599013,4.8025285,52.3525312,Hoekenes
434599016,4.8091809,52.3539445,Louis Davidsstraat
434599019,4.7913,52.3564413,Baden Powellweg
434599022,4.7990044,52.3579858,Hoekenes
434611618,4.8533018,52.3617312,Corantijnstraat
434611621,4.8533199,52.3589177,Hoofdweg
434611624,4.8593598,52.3647944,Witte de Withstraat
434614441,4.8624279,52.3647155,Jan Pieter Heijestraat
434614443,4.8629022,52.364859,Jan Pieter Heijestraat
434636552,4.8673503,52.3659048,Ten Katestraat
434636555,4.8677099,52.3660138,Ten Katestraat
434636559,4.8717706,52.3671051,Bilderdijkstraat
434646764,4.8603588,52.3590399,Rhijnvis Feithstraat
434646765,4.8596804,52.3588349,Rhijnvis Feithstraat
434646766,4.8657405,52.3603415,Jan Pieter Heijestraat
434662838,4.8032895,52.3772583,Lambertus Zijlplein
434662842,4.8062691,52.3769399,Dr. H. Colijnstraat
434662845,4.812025,52.3764511,Burgemeester van Leeuwenlaan
434662848,4.8206342,52.375435,Slotermeerlaan
434662850,4.8173027,52.3759504,Slotermeerlaan
434662855,4.8276999,52.3743582,Burgemeester Rendorpstraat
434662859,4.8268004,52.37447,Burgemeester Rendorpstraat
434662863,4.8359077,52.3730297,Jan van Galenstraat
434675414,4.8378175,52.3708227,Jan Tooropstraat
434675418,4.8385575,52.3695853,Jan Voermanstraat
434675421,4.8507985,52.3701373,Mercatorplein
434675423,4.8554925,52.37096,Marco Polostraat
434696265,4.8187509,52.3750672,Burgemeester Roellstraat
434696268,4.8196799,52.3772965,Lodewijk van Deysselstraat
434700013,4.8465257,52.3772239,Bos en Lommerplein
434700014,4.8485846,52.3733303,Jan van Galenstraat
439315728,4.2860007,52.0962901,World Forum
439325815,4.2897453,52.0932942,Adriaan Goekooplaan
439328178,4.2769305,52.1042291,Keizerstraat
439420133,4.2837301,52.1134901,Kurhaus
439420166,4.2891287,52.115942,Zwarte Pad
439638505,4.3034053,52.0876554,Javastraat
439659842,4.3138958,52.0782999,Centrum
440969465,4.8911601,52.3727175,Dam
440969468,4.8913932,52.373565,Dam
441278178,4.3442531,52.0448494,'s-Gravenmade
441278179,4.3446494,52.0418509,Vlietbrug
442697457,4.2936405,52.0832789,Van Speijkstraat (Oost)
442697478,4.2974916,52.0804592,Elandstraat (Oost)
442697484,4.3024399,52.0799526,Noordwal
442697485,4.3028834,52.0795469,Noordwal
442717493,4.3095639,52.0781851,Gravenstraat
442717526,4.3103678,52.0803074,Buitenhof
442717577,4.3173926,52.0831223,Korte Voorhout
443126499,4.3243468,52.0719185,Rijswijkseplein - Station HS
443126551,4.3279928,52.067912,Goudriaankade
443126553,4.3327427,52.0620779,Wenckebachstraat
443126554,4.3321255,52.0627793,Wenckebachstraat
443126560,4.3345153,52.0602553,Broeksloot
462189025,4.2924021,52.0783587,Elandstraat (West)
496283300,4.3731273,52.0872318,Essesteijn
496283345,4.3896123,52.0951043,Burgemeester Kolfschotenlaan
496283352,4.3944871,52.0975836,Kastelenring
500365599,4.9097221,52.3573369,Wibautstraat
500371070,4.8949301,52.3533308,Tweede van der Helststraat
502259162,4.8572627,52.338422,Amstelveenseweg
502259165,4.8573071,52.3382323,Amstelveenseweg
502259168,4.8577457,52.3416051,IJsbaanpad
502259173,4.8575767,52.3405984,IJsbaanpad
502269968,4.8568368,52.3440249,Olympisch Stadion
502269975,4.8650776,52.3518774,Valeriusplein
502269979,4.8694541,52.3529017,Emmastraat
502269987,4.8765032,52.354883,Jacob Obrechtstraat
502341044,4.8775579,52.3695272,Elandsgracht
527540909,4.9044313,52.3558285,Amsteldijk
541642059,4.2738046,52.0855311,Houtrust
541642063,4.272188,52.0884073,Boreelstraat
541642104,4.2709085,52.1045006,Vuurbaakstraat
541645120,4.2811935,52.0935104,World Forum
541645128,4.2861921,52.096098,World Forum
568060988,4.3091195,52.0754813,Grote Markt
568060989,4.3136908,52.077088,Spui
568251965,4.3155389,52.0563028,Van Zeggelenlaan
568251966,4.3159115,52.0564724,Van Zeggelenlaan
568251967,4.3034809,52.0735228,Brouwersgracht
582544759,4.4960213,51.9244834,Oostplein
594942197,4.8500932,52.3703449,Mercatorplein
611703489,4.4385723,51.9115463,Zeilmakersstraat
611703511,4.4456414,51.9099934,Delfshaven
611723968,4.3461224,51.9320301,De Loper
611724007,4.5459219,51.8921044,Antonius IJsselmonde
611724030,4.567816,51.8858009,P+R Beverwaard
611724049,4.5687732,51.888675,Croystraat
611729409,4.5004938,51.8439418,Opstelspoor Carnisselande
611729445,4.498043,51.8691879,Vrijenburgerbos
611729447,4.4977031,51.8691575,Vrijenburgerbos
611729509,4.5098201,51.8934979,Randweg
611729510,4.5076437,51.8892452,Sandelingplein
611729514,4.5136686,51.8908325,Breeplein
611731663,4.4697101,51.9604193,Peppelweg
611731681,4.4718994,51.9615745,Larikslaan
611779251,4.4938013,51.8969506,Maashaven
611779262,4.5218366,51.8775857,Molenvliet
611779269,4.521219,51.882302,Smeetslandsedijk
611779320,4.5442278,51.881559,Kerstendijk
611779328,4.5523623,51.8834726,Bredenoord
611782053,4.520994,51.8873943,Beukendaal
611782161,4.5392195,51.8821052,Kreekhuizenlaan
613090620,5.9075393,52.0085646,Diensthalte
613090633,5.9127124,52.0086709,Spaarstation Dingenliefde (B)
613090650,5.9074222,52.0102063,Grote weide (A)
613090688,5.9088447,52.0120943,Kasteelboerderij (F)
613090729,5.9145739,52.0098538,Cafe de Viersprong (C)
613090742,5.9140899,52.0116168,Freia (D)
613090743,5.9116915,52.0120135,Remise (E)
627947021,4.3765181,52.044394,Scholekstersingel
632448218,4.3239533,52.0793677,Centraal Station/Schedeldoekshaven
632756943,4.3160599,52.0779531,Kalvermarkt-Stadhuis
653575708,4.5334464,51.8807964,Station Lombardijen
653575743,4.5573039,51.8847936,Akkeroord
666333618,4.2981149,52.0872935,Vredespaleis
666968958,4.4820683,51.9128524,Leuvehaven
666968960,4.4785044,51.9117864,Vasteland
666968962,4.4750751,51.9149829,Museumpark
666970221,4.4792688,51.9087959,Westplein
666972237,4.4731753,51.9167824,Eendrachtsplein
666972249,4.4724608,51.9169491,Eendrachtsplein
668590643,4.5259209,51.9225641,'s-Gravenwetering
668640472,4.4757984,51.9452912,"Rotterdam, Bergpolderplein"
668643687,4.4681235,51.9449401,Kleiweg
668646314,4.4716833,51.9096892,Kievitslaan
668646490,4.4600014,51.9053152,Pieter de Hoochweg
668647492,4.4536337,51.9036937,Oostkousdijk
668649814,4.4469031,51.9042407,Schiemond
668716081,4.4423294,51.9105857,Van Duylstraat
668725829,4.4558117,51.9124082,Heemraadsplein
668727069,4.4640692,51.9138728,'s-Gravendijkwal
668727070,4.460365,51.913239,Claes de Vrieselaan
668727692,4.4691543,51.9162115,Bloemkwekersstraat
668733215,4.4803447,51.9297084,Noordsingel
668747534,4.5009729,51.9579544,De Montignyplein
668977860,4.5118971,51.9202665,Avenue Concordia
668984215,4.4238633,51.9135148,Het Witte Dorp
669051433,4.4643803,51.9332259,Schieweg
669051606,4.4592922,51.9305027,Statenweg
669062660,4.4556379,51.9293206,Vroesenpark
671198273,4.4180217,51.9138748,Hogenbanweg
671198275,4.4023608,51.9184511,Broersvest
671199618,4.3812588,51.9239182,"Schiedam, Station Nieuwland"
671200291,4.3747854,51.9344695,"Schiedam, Hof van Spaland"
671202928,4.3673105,51.9374853,Schubertplein
671202935,4.3588705,51.9349625,Parijslaan
671202948,4.3533473,51.9336554,Over de Dammen
671202978,4.3421402,51.9302804,Holysingel
671233595,4.532406,51.8944681,Noorderhelling
671235281,4.5390573,51.8931991,Dwarsdijk
671235564,4.5461547,51.8920092,Antonius IJsselmonde
671235844,4.5520636,51.8905274,Prinsenplein
671242312,4.5687379,51.8884413,Croystraat
671242314,4.5702379,51.8929821,Oude Watering
671242316,4.5673262,51.8950565,Schinnenbaan
671242765,4.5684547,51.8981722,Beverwaardseweg
671243621,4.5737701,51.8981858,Limbrichthoek
671248288,4.5393113,51.8824887,Kreekhuizenlaan
671280556,4.514976,51.8901931,Breeplein
671281481,4.5109143,51.8970901,Beijerlandselaan
671435841,4.5076443,51.8894026,Sandelingplein
671435847,4.5049751,51.8832964,Groene Hilledijk
671435852,4.507977,51.8785792,Paasweide
671438152,4.5024255,51.8601142,Vrijenburg
671438163,4.4954972,51.8740124,Langenhorst
671438530,4.501548,51.8543295,Meerwede
671444547,4.5009771,51.8483144,Middeldijkerplein
671444549,4.5006666,51.8451047,Waterkant
671446518,4.5064439,51.8950786,Hillevliet
671446520,4.5022353,51.8974882,Putsebocht
671446521,4.4938809,51.8969981,Maashaven
671449162,4.483956,51.8943752,Brielselaan
671449163,4.4782374,51.8913266,Pleinweg
671449169,4.4691894,51.8907242,Frans Bekkerstraat
671451012,4.4647454,51.8830223,Kromme Zandweg
695213988,4.9398853,52.3479273,Kruislaan
701437312,4.3998773,52.0645225,Leidschenveen Centrum
702260461,4.8468383,52.3780774,Bos en Lommerplein
702260759,4.8464234,52.3771934,Bos en Lommerplein
702260888,4.8274977,52.349106,Johan Huizingalaan
702260913,4.8449311,52.3777754,Bos en Lommerplein
702261011,4.8274432,52.349218,Johan Huizingalaan
714291689,4.3220654,52.0586771,Jonckbloetplein
717425807,4.2766573,52.0419097,Steenwijklaan
717425810,4.2777194,52.0413499,Steenwijklaan
721160479,4.8310898,52.3799126,Burgemeester Fockstraat
721160483,4.8382938,52.3787581,De Vlugtlaan
721160531,4.8211591,52.3808373,Plein 40-45
721160537,4.8372167,52.3789508,De Vlugtlaan
721160547,4.8514972,52.3790312,Egidiusstraat
721160612,4.8758665,52.3726552,Rozengracht
721160625,4.8763394,52.3723344,Marnixstraat
721160643,4.8225241,52.3812253,Plein '40-45
721160654,4.8509179,52.3789403,Egidiusstraat
721160690,4.8784804,52.3681689,Elandsgracht
721160706,4.8258029,52.3807422,Burgemeester Eliasstraat
721160717,4.8537598,52.3801934,Bos en Lommerweg
721160782,4.8768971,52.368541,Elandsgracht
721160810,4.827414,52.3804689,Burgemeester Eliasstraat
721160815,4.8327755,52.3796204,Burgemeester Fockstraat
724099181,4.8600628,52.3351885,VU Medisch Centrum
724099197,4.8602389,52.3351574,VU Medisch Centrum
724232633,4.8791931,52.3559278,Museumplein
724232636,4.8798161,52.356373,Museumplein
724232654,4.8835543,52.3597646,"Amsterdam, Rijksmuseum"
724232674,4.8569523,52.3438468,Olympisch Stadion
724344100,4.8567453,52.351218,Zeilstraat
724345008,4.8569303,52.3516037,Amstelveenseweg
724345194,4.8701703,52.3531869,Emmastraat
724345254,4.8560965,52.3513414,Amstelveenseweg
724345268,4.8564855,52.3517272,Amstelveenseweg
724345277,4.8641314,52.3515886,Valeriusplein
724345452,4.8759207,52.3546907,Jacob Obrechtstraat
726817226,4.8934781,52.3761258,Nieuwezijds Kolk
726817850,4.8930075,52.3758578,Nieuwezijds Kolk
732291758,4.3956366,52.0980439,Kastelenring
732292087,4.3885313,52.0944912,Burgemeester Kolfschotenlaan
732655960,4.4548581,51.9261818,Diergaarde Blijdorp
764161962,4.8336405,52.3515023,Heemstedestraat
795542606,4.9220599,52.3760656,Kattenburgerstraat
795542860,4.9616975,52.3720069,Zuiderzeeweg
805087247,4.816387,52.3464822,Laan van Vlaanderen
831837851,4.4620578,51.9264184,Bentinckplein
842401418,5.0480352,52.0264071,Clinckhoeff
842401425,5.0362061,52.0254863,Eiteren
881345030,4.8018434,52.3524319,Hoekenes
946115492,4.4536529,51.917092,Vierambachtsstraat
1028563026,4.4765122,51.9195887,Lijnbaan
1028861752,4.4645599,51.9192916,Tiendplein
1081322915,4.8397482,52.3579573,Derkinderenstraat
1101710079,4.9056764,52.3463647,Victorieplein
1101710092,4.9053793,52.3459642,Victorieplein
1101710093,4.905117,52.3466728,Victorieplein
1106371806,4.2523983,52.0877457,Markenseplein
1258536183,4.2704451,52.1064492,Strandweg
1262086564,4.9134731,52.3583252,Camperstraat
1264206671,4.2704824,52.1064216,Strandweg
1322464438,4.4464602,51.9099329,Delfshaven
1343410025,4.2989564,52.0872594,Vredespaleis
1343446663,4.3147737,52.0774196,Spui
1344765802,4.2860961,52.0312855,Hoge Veld
1344765817,4.2858718,52.0316545,Hoge Veld
1345213263,4.2732233,52.0941141,Frankenslag
1345213266,4.2837592,52.0848614,Groot Hertoginnelaan
1345213277,4.2726392,52.0948235,Van Boetzelaerlaan
1345213285,4.2827054,52.0851669,Groot Hertoginnelaan
1345213298,4.2719532,52.0954142,Van Boetzelaerlaan
1345213304,4.2762229,52.0925826,Frederik Hendriklaan
1345213323,4.2763956,52.0955819,Prins Mauritslaan
1345213328,4.2782957,52.0912732,Statenplein
1345213332,4.2781858,52.0915296,Statenplein
1345213347,4.2795696,52.089032,Gemeentemuseum/Museon
1345213354,4.2733063,52.0941407,Frankenslag
1345213359,4.2797144,52.0886855,Gemeentemuseum/Museon
1345992364,4.2755591,52.0928516,Frederik Hendriklaan
1347337249,4.3378695,52.0409164,Patentlaan
1347992628,4.3226324,52.0376628,Station Rijswijk
1351089483,4.8551339,52.3708615,Marco Polostraat
1351702713,4.3466969,52.0495397,Broekpolder
1351702715,4.338183,52.05641,Herenstraat
1351702716,4.3407899,52.0536884,Hoornbrug
1351702719,4.3620702,52.0438962,Laan van Ypenburg
1351702720,4.3598159,52.04509,Laan van Ypenburg
1351702721,4.3674351,52.0410819,Plesmanlaan
1351702834,4.3405629,52.0539809,Hoornbrug
1352868483,4.2665694,52.0564986,Leyenburg
1363586201,4.3548164,51.9987609,De Hoven Passage
1363586202,4.3547338,51.9993374,De Hoven Passage
1365661673,4.2767949,52.1039189,Keizerstraat
1367047226,4.2806154,52.1110408,Scheveningseslag/Beelden aan Zee
1367047227,4.2809678,52.1112292,Scheveningseslag/Beelden aan Zee
1369158203,4.3425223,52.0815251,Stuyvesantstraat
1369158205,4.3421778,52.0818811,Stuyvesantstraat
1369267267,4.3501899,52.0779363,Bruijnings Ingenhoeslaan
1369267268,4.3494057,52.0781642,Bruijnings Ingenhoeslaan
1369267269,4.3452767,52.0791468,Station Laan van N.O.I.
1369267270,4.3449586,52.0794994,Station Laan van N.O.I.
1425407536,4.3039333,52.0870948,Javastraat
1425407547,4.3059937,52.0851362,Mauritskade
1426819482,4.2977903,52.0665441,Haagse Markt
1426819485,4.297907,52.0670141,Haagse Markt
1431304716,4.3349571,52.0800372,Beatrixkwartier
1432266784,4.2997219,52.0725627,MCH Westeinde
1432266839,4.3392948,52.0839996,Oostinje
1435904271,4.3278374,52.0517638,Van Vredenburchweg
1435904318,4.3264728,52.0614707,Lorentzplein
1435904351,4.3265215,52.0656112,Laakkade
1435904436,4.323378,52.0724204,Rijswijkseplein
1436421350,4.388485,52.0550666,Station Ypenburg
1436693423,4.4052413,52.069021,Klaverveld
1436693425,4.3947702,52.0603395,Lanen
1436693432,4.3952984,52.0606998,Lanen
1436693439,4.4005499,52.0649673,Leidschenveen Centrum
1461126216,4.4810762,51.9425562,"Rotterdam, Station Noord"
1485171402,4.2390409,52.0538736,Loosduinse Hoofdstraat
1491878698,4.8659937,52.3352193,De Boelelaan/VU
1505558201,4.2853092,52.0954972,Johan De Wittlaan
1505558224,4.325361,52.0641103,Laakkade
1505751501,4.2740346,52.1015321,Duinstraat
1506383163,4.27227,52.0883218,Boreelstraat
1506383167,4.2982979,52.0659574,Haagse Markt
1506383168,4.3012563,52.0628991,Hoefkade
1506383176,4.284057,52.0805805,Laan van Meerdervoort
1506383179,4.2915033,52.0734275,Loosduinseweg
1506383181,4.2710573,52.0959519,Statenlaan
1506383183,4.271468,52.096358,Statenlaan
1506383184,4.2868353,52.0786183,Weimarstraat
1506383187,4.2864215,52.0788666,Weimarstraat
1506383191,4.308388,52.0614605,Wouwermanstraat
1508440698,4.3062867,52.0847848,Mauritskade
1508780482,4.2895931,52.0933495,Adriaan Goekooplaan
1508780489,4.2942136,52.0896758,Ary vd Spuyweg
1508780498,4.2939012,52.089858,Ary vd Spuyweg
1509179716,4.2789129,52.1019853,Duinstraat
1509622193,4.283627,52.1130297,Kurhaus
1509776548,4.3497478,51.9963024,Martinus Nijhofflaan
1509776549,4.3508568,51.9964668,Martinus Nijhofflaan
1509776550,4.3419027,51.9805722,Bikolaan
1509776552,4.3416442,51.981337,Bikolaan
1509776554,4.3502951,51.980762,Abtswoudsepark
1509776555,4.3444856,51.9950305,Diepenbrockstraat
1509776558,4.3444396,51.9950963,Diepenbrockstraat
1509776574,4.343368,51.9844504,Sadatweg
1509776575,4.3444499,51.9896281,Van der Slootsingel
1509776576,4.3444919,51.9904516,Van der Slootsingel
1510299136,4.3147127,52.0777535,Centrum
1510612563,4.3194869,52.0752404,Bierkade
1511997050,4.3234166,52.0724491,Rijswijkseplein
1513299757,4.3332398,52.0597541,Broeksloot
1513299859,4.321401,52.0663966,Leeghwaterplein
1513299977,4.3253509,52.0626871,Oudemansstraat
1514589619,4.3356323,52.0591323,Broeksloot
1514600664,4.3302874,52.0646882,Van Musschenbroekstraat
1514600680,4.3296029,52.0658073,Van Musschenbroekstraat
1515893510,4.3472734,52.0489953,Broekpolder
1515893526,4.345306,52.0495249,Broekpolder
1515924673,4.3442423,52.0446475,'s-Gravenmade
1517005114,4.343838,51.9844968,Sadatweg
1517783972,4.2709557,52.1041835,Vuurbaakstraat
1518647658,4.2712642,52.1060978,Strandweg
1520313434,4.2735667,52.1016947,Duinstraat
1521195790,4.2737225,52.0981234,Doornstraat
1521195811,4.2740853,52.0983611,Doornstraat
1521621820,4.2736518,52.0858051,Houtrust
1522147645,4.2844256,52.0803152,Laan van Meerdervoort
1523390707,4.2825782,52.0805097,Conradkade
1523786995,4.2922759,52.072952,Monstersestraat
1524542667,4.298107,52.0671143,Haagse Markt
1525312722,4.3007126,52.0634775,Hoefkade
1525434228,4.3085383,52.0611446,Wouwermanstraat
1525434237,4.3093623,52.061533,Wouwermanstraat
1525434249,4.3093052,52.0616085,Wouwermanstraat
1526161797,4.2711682,52.0911537,Willem de Zwijgerlaan
1526377112,4.2895721,52.0172443,Dorpskade
1527048926,4.2760946,52.0445289,Leggelostraat
1527111402,4.2835521,52.0485175,Loevesteinlaan
1527188511,4.2906541,52.0452877,Hardenbroekstraat
1527188525,4.2938506,52.0470291,Remmersteinstraat
1528034763,4.2959985,52.0481755,Geysterenweg
1528088039,4.303403,52.0521319,Heeswijkplein
1528126129,4.3074691,52.0545424,Station Moerwijk
1528552638,4.3121643,52.0559365,Alberdingk Thijmstraat
1528953520,4.3107583,52.0804405,Buitenhof
1528953524,4.3233884,52.0805344,Centraal Station
1528953537,4.3229419,52.0809541,Centraal Station
1528953554,4.3230137,52.0809886,Centraal Station
1528953573,4.316391,52.0827656,Korte Voorhout
1528953782,4.3233101,52.0791744,Centraal Station/Schedeldoekshaven
1529465105,4.3178129,52.0322497,Admiraal Helfrichsingel
1529465128,4.3120022,52.024592,Aletta Jacobsstraat
1529465149,4.3065011,52.0226998,Eikelenburg
1529465154,4.3309447,52.0481356,Generaal Spoorlaan
1529465157,4.3295258,52.037243,Volmerlaan
1529465163,4.3190504,52.0282238,Weidedreef
1529666348,4.3244509,52.0731724,Rijswijkseplein
1530188319,4.2970358,52.0804967,Elandstraat (Oost)
1530188352,4.29391,52.0829925,Van Speijkstraat (Oost)
1530270946,4.2883565,52.0812408,Van Speijkstraat (West)
1530270948,4.2880924,52.0819157,Waldeck Pyrmontkade (Zuid)
1531264499,4.2856761,52.0956254,Johan De Wittlaan
1531264631,4.28189,52.0938549,World Forum
1532790053,4.2900539,52.0686285,Paul Krugerplein
1532790090,4.2897106,52.0687578,Paul Krugerplein
1532790133,4.2894542,52.0689098,Paul Krugerplein
1533318132,4.2863029,52.0711726,De la Reyweg
1533318147,4.2846717,52.0710821,Loosduinseweg
1534218534,4.8705358,52.3711828,De Clercqstraat
1534245598,4.2705883,52.0764111,Fahrenheitstraat
1534245680,4.2723867,52.0764121,Fahrenheitstraat
1534245739,4.2719442,52.0765228,Fahrenheitstraat
1534369996,4.2799292,52.0756686,Weimarstraat
1534413044,4.2813969,52.0739446,Cartesiusstraat
1534413100,4.2666246,52.0749415,Goudenregenstraat
1534674536,4.2614039,52.0731229,Azaleastraat
1535157997,4.3087497,52.0778192,Gravenstraat
1535410311,4.264052,52.0764823,Goudenregenplein
1535410320,4.2638697,52.0766213,Goudenregenplein
1535410331,4.2559006,52.0861382,Tholensestraat
1538340360,4.305872,52.0729926,Brouwersgracht
1538340403,4.3045821,52.0738707,Brouwersgracht
1538340418,4.3052536,52.073735,Brouwersgracht
1538340447,4.30723,52.0703149,Om en Bij
1538340498,4.3074988,52.0709908,Om en Bij
1538404155,4.3025097,52.0687461,Vaillantlaan
1538404173,4.3029276,52.0688536,Vaillantlaan
1538862655,4.2895692,52.0684904,Paul Krugerplein
1539478943,4.2820387,52.0670074,Dierenselaan
1542404189,4.3245352,52.0716468,Rijswijkseplein - Station HS
1543286549,4.2703045,52.0620104,Monnickendamplein
1543360650,4.2767932,52.0645717,Tienhovenselaan
1544903778,4.3237317,52.0810258,Centraal Station
1544903790,4.3246847,52.0811648,Centraal Station
1544903793,4.3098688,52.0756791,Grote Markt
1544903817,4.3381382,52.0837817,Oostinje
1544903828,4.332519,52.0819866,Ternoot
1544903842,4.3334604,52.0822784,Ternoot
1546352418,4.3478829,52.0868561,Carel Reinierszkade
1546352420,4.3624968,52.0939,Hofzichtlaan
1546352422,4.3630974,52.0940735,Hofzichtlaan
1546352424,4.3529254,52.0892864,Reigersbergenweg
1546352428,4.3534256,52.0895036,Reigersbergenweg
1546352437,4.3576514,52.0915805,Vlamenburg
1546352446,4.3579545,52.09176,Vlamenburg
1547253829,4.3657977,52.0915694,Margarethaland
1547253881,4.3655946,52.0918001,Margarethaland
1547794098,4.3724135,52.086906,Essesteijn
1547794115,4.3818185,52.0907453,Leidsenhage
1547794128,4.382651,52.0910728,Leidsenhage
1548540372,4.3544407,52.0769581,Monseigneur van Steelaan
1548540375,4.3538181,52.0771492,"Voorburg, Monseigneur van Steelaan"
1549366488,4.3600856,52.0791065,Prinses Beatrixlaan
1549366509,4.3603814,52.0792839,Prinses Beatrixlaan
1549366519,4.3650002,52.0815356,Voorburg 't Loo
1549366527,4.3653841,52.0816769,Voorburg 't Loo
1551055610,4.2414749,52.0552525,Burgemeester Hovylaan
1551055642,4.2383311,52.0504413,Kapelaan Meereboerweg
1551976511,4.245609,52.0565253,Buitentuinen
1551976522,4.2706466,52.0668271,Kamperfoeliestraat
1551976529,4.2553493,52.06063,Walnootstraat
1553014206,4.2697872,52.0413299,Wolweversgaarde
1554093456,4.3065294,52.0590851,Dynamostraat
1554527747,4.2844167,52.1102761,Circustheater
1554527755,4.2841072,52.110554,Circustheater
1554527769,4.3167253,52.0781198,Kalvermarkt-Stadhuis
1554527784,4.2893458,52.107415,Nieuwe Duinweg
1554527799,4.2889946,52.1075828,Nieuwe Duinweg
1554527804,4.2866417,52.1094288,Stevinstraat
1554527832,4.297445,52.1015565,Wagenaarweg
1554527842,4.2972452,52.1017266,Wagenaarweg
1554624103,4.3002241,52.0991566,Madurodam
1554624145,4.2998245,52.0993482,Madurodam
1554624231,4.3175229,52.0834512,Malieveld
1554770245,4.3143569,52.086953,Doctor Kuyperstraat
1554770267,4.313805,52.0877116,Doctor Kuyperstraat
1554770294,4.3123585,52.0894062,Javabrug
1554770328,4.3117432,52.090127,Javabrug
1554770351,4.3100716,52.0920981,Laan Copes van Cattenburch
1554770371,4.3095205,52.0928519,Laan Copes van Cattenburch
1554770394,4.3078449,52.0948029,Riouwstraat
1554770423,4.3077438,52.0948578,Riouwstraat
1557567682,4.382484,52.0483733,Gruttosingel
1557567706,4.3536194,52.048248,Laan van 's-Gravenmade
1557567732,4.352321,52.0483469,Laan van 's-Gravenmade
1557567740,4.3681267,52.0406774,Plesmanlaan
1557567768,4.3773723,52.0449207,Scholekstersingel
1564865803,4.3629726,52.0353704,Anthony Fokkersingel
1564865859,4.3637711,52.0358588,Anthony Fokkersingel
1564865992,4.368527,52.0390726,Ypenburg Centrum
1565019785,4.2944109,52.1056097,Cremerweg
1565019810,4.2941475,52.1057459,Cremerweg
1565019830,4.286373,52.1095382,Stevinstraat
1565108685,4.4055066,52.068778,Klaverveld
1565108886,4.4008398,52.0720744,Oude Middenweg
1565269574,4.3873003,52.078909,Oosteinde
1565269615,4.3866431,52.0794612,Oosteinde
1565511061,4.3823007,52.0884013,Weigelia
1565511150,4.3815979,52.0890325,Weigelia
1565650359,4.3848568,52.0512928,Weidevogellaan
1565650397,4.3847866,52.0515287,Weidevogellaan
1582427256,4.8186019,52.3728449,Sloterpark
1584103895,4.9040417,52.3494099,Jozef Israëlskade
1595259761,4.9401781,52.3616866,Molukkenstraat
1611090299,4.4826237,51.9098039,Willemsplein
1618762410,4.8830722,52.3634714,Leidseplein
1618775729,4.8666224,52.3605213,Jan Pieter Heijestraat
1656614052,4.5682968,51.8858227,P+R Beverwaard
1682219499,4.262078,52.0500241,Dedemsvaartweg
1686005101,4.8413316,52.3515383,Delftlandlaan
1686005104,4.8397602,52.3515505,Delftlandlaan
1690450992,4.8806933,52.3646825,Leidseplein
1699278271,4.3277138,52.0682252,Goudriaankade
1699281095,4.3171521,52.0347175,In de Bogaard
1699285105,4.2392681,52.0541175,Loosduinse Hoofdstraat
1716142293,4.8194609,52.3766616,Lodewijk van Deysselstraat
1716780176,4.4727662,51.8913674,Dorpsweg
1719343349,4.8687365,52.3380116,Parnassusweg
1719842627,4.5117666,51.9004114,Varkenoordseviaduct
1721164735,4.5251686,51.89556,Stadion Feyenoord
1922471101,4.281077,52.1002887,Frankenslag
1923327168,4.8688809,52.3317551,A. J. Ernststraat
1923327222,4.8692372,52.3217332,Uilenstede
1923339515,4.8697109,52.2998427,Amstelveen Centrum
1923339550,4.8721521,52.3034159,Oranjebaan
1923365045,4.8615833,52.2871487,Marne
1923365101,4.8573912,52.2812036,Meent
1923365119,4.8323277,52.2821847,Sacharovlaan
1923658511,4.2331611,52.054514,Arnold Spoelplein
1923658528,4.2279443,52.057194,Pisuissestraat
1923719357,4.2313648,52.0627152,Heliotrooplaan
1923719360,4.2349036,52.063873,Muurbloemweg
1923759579,4.2397531,52.0653052,Hoefbladlaan
1923780215,4.2462351,52.067345,De Savornin Lohmanplein
1923811788,4.2512431,52.0692737,Appelstraat
1924155270,4.292713,52.0780922,Elandstraat (West)
1924155280,4.2761221,52.0783739,Valkenbosplein
1924248598,4.2494662,52.0423503,Beresteinlaan
1925055561,4.2549855,52.0458558,Bouwlustlaan
1925055571,4.2580803,52.0478183,De Rade
1978110960,4.7868747,52.3555442,Dijkgraafplein
1978110972,4.7865424,52.3554474,Dijkgraafplein
1978358503,4.8633,52.353178,Valeriusplein
1978358521,4.8637683,52.353339,Valeriusplein
1979187101,4.776554,52.3530108,Pilatus
1979187198,4.7829483,52.3504489,Inaristraat
1999885337,4.3761847,51.9965147,TU - Sport & Cultuur
1999885398,4.3767716,51.9960642,TU - Sport & Cultuur
2013949519,4.9336328,52.3611749,Muiderpoortstation
2020414930,4.8392172,52.3879696,Sloterdijk
2020614094,4.8725537,52.3673557,Bilderdijkstraat
2099850204,4.394164,51.9243654,Parkweg
2116559667,4.3461141,52.0336744,Verffabriek
2117557569,4.400263,52.1000963,Dillenburgsingel
2117557583,4.3994662,52.0997867,Dillenburgsingel
2117584178,4.369291,52.0838793,Elzendreef
2122397874,4.3515552,52.0238111,Brasserskade
2122397875,4.3514272,52.0240853,Brasserskade
2122418178,4.3446639,52.0420857,Vlietbrug
2122422257,4.3693628,52.0395766,Ypenburg Centrum
2122594605,4.367225,52.0903558,AEGONplein
2122594606,4.3670557,52.0905516,AEGONplein
2122594607,4.3694043,52.088581,Station Mariahoeve
2122594608,4.3685841,52.0892495,Station Mariahoeve
2122633209,4.3426918,52.0843806,Stuyvesantplein
2132346523,4.3145872,52.0778334,Centrum
2141329345,4.257436,52.034788,De Dreef
2141330039,4.2792053,52.046061,Leyweg
2141330265,4.2915652,52.0527478,Zuiderpark
2141385836,4.245277,52.0394312,De Uithof
2141385837,4.2357355,52.0488129,Kraayensteinlaan
2141385838,4.2365906,52.0489491,Kraayensteinlaan
2165710217,4.2770408,52.1080947,Badhuiskade
2166650984,4.3424732,52.0788537,Den Haag Laan van NOI
2166650985,4.3424434,52.0788774,Den Haag Laan van NOI
2173265460,4.3724146,52.0016093,TU - Aula
2173265461,4.372183,52.0020703,TU - Aula
2264749492,5.149727,52.0792331,Galgenwaard
2264749498,5.1496768,52.0792452,Galgenwaard
2266447684,5.0798993,52.0408052,
2273008701,5.0793211,52.0288821,
2273008704,5.0795327,52.0286653,
2273008716,5.0791196,52.029063,
2273010925,5.0517727,52.0252798,Hooghe Waerd
2273010936,5.0526486,52.0250381,Hooghe Waerd
2273010941,5.0391061,52.0167803,Binnenstad
2273010942,5.028844,52.0225393,Achterveld
2300172831,4.8763837,52.3742782,Bloemgracht
2303104508,4.8722803,52.3670982,Kinkerstraat
2316881859,4.9013424,52.3776868,Centraal Station
2316881868,4.9012146,52.3777394,Centraal Station
2323107827,4.3523722,52.0172693,Nieuwe Plantage
2323107829,4.3526516,52.0174779,Nieuwe Plantage
2335210905,4.3634247,52.0080504,Zuidpoort
2335210906,4.3643779,52.0084011,Zuidpoort
2349089351,4.3740487,51.999253,TU - Mekelpark
2349089352,4.3737981,51.9996989,TU - Mekelpark
2351978937,4.4788494,51.9246236,Pompenburg
2351978938,4.4788332,51.9246629,Pompenburg
2351978940,4.4708827,51.9235393,Rotterdam Centraal
2351978941,4.4709595,51.9235463,Rotterdam Centraal
2351978942,4.470919,51.9239796,Rotterdam Centraal
2351978943,4.4710031,51.9239859,Rotterdam Centraal D
2351978944,4.4780795,51.9236135,Stadhuis
2351978945,4.478057,51.9237461,Stadhuis
2351978946,4.4781146,51.9238012,Stadhuis
2351978947,4.4763219,51.9241825,Weena
2351978948,4.4767153,51.9241831,Weena
2351978951,4.476688,51.9242279,Weena
2388757587,4.4802424,51.9192029,Beurs
2388757588,4.4802028,51.9194397,Beurs
2388757589,4.489112,51.9198805,Blaak
2388757590,4.4890674,51.9199084,Blaak
2388757591,4.4942066,51.9216119,Burg. Van Walsumweg
2388757592,4.4943444,51.9216289,Burg. Van Walsumweg
2388757593,4.4836815,51.918549,Keizerstraat
2388757594,4.483669,51.9185748,Keizerstraat
2388757595,4.4919035,51.9241258,Kipstraat
2388757596,4.4919078,51.9241435,Kipstraat
2388757598,4.4858363,51.9248792,Meent
2388757599,4.4856783,51.9249382,Meent
2388757864,4.4987431,51.9230713,Oostplein
2388757867,4.4986392,51.9231189,Oostplein
2388757998,4.4959435,51.924133,Oostplein
2388775750,4.4719004,51.9204481,Kruisplein
2388775751,4.4719498,51.9204513,Kruisplein
2388775820,4.4761217,51.9195489,Lijnbaan
2388775853,4.4702861,51.9206858,Kruisplein
2388775854,4.4707028,51.9208362,Kruisplein
2421932411,4.8552144,52.3803271,Bos en Lommerweg
2421932426,4.8521883,52.3820344,Wiltzanghlaan
2557105416,4.3824632,52.092215,MCH Antoniushove
2557105421,4.3825429,52.0922527,MCH Antoniushove
2557373374,4.370338,52.0844332,Elzendreef
2647350789,5.0803909,52.0414854,
2647350790,5.0802602,52.0415106,
2671956056,4.3483109,52.087016,Carel Reinierszkade
2672742552,4.8953437,52.374831,Dam
2672749411,4.8921252,52.3694572,Rokin
2672749474,4.8922768,52.3697207,Rokin
2672858758,4.8925148,52.3643359,Keizersgracht
2672858789,4.8925526,52.3643337,Keizersgracht
2672987276,4.8964252,52.3662561,Rembrandtplein
2672987288,4.902235,52.3671657,Waterlooplein
2673071058,4.8910303,52.3600132,Vijzelgracht
2673071064,4.9058512,52.3677449,Meester Visserplein
2673071086,4.9112883,52.3665646,Artis
2673087141,4.898288,52.3638044,Keizersgracht
2673087152,4.8988615,52.359094,Frederiksplein
2673087175,4.8992232,52.358102,Stadhouderskade
2673087196,4.9010754,52.3550129,Ceintuurbaan
2673087253,4.9033703,52.3513884,Lutmastraat
2673092648,4.90506,52.3466634,Victorieplein
2673092651,4.9043407,52.3487259,Amstelkade
2673092655,4.9033274,52.3513852,Lutmastraat
2674521917,4.9152506,52.3651869,Plantage Lepellaan
2674521942,4.9196097,52.3634343,Alexanderplein
2674521943,4.9152702,52.365217,Plantage Lepellaan
2674521954,4.9238159,52.3621936,Eerste Van Swindenstraat
2674521961,4.9241729,52.3616114,Eerste Van Swindenstraat
2674521970,4.9250867,52.3602602,Wijttenbachstraat
2674538426,4.9307378,52.3535998,Hogeweg
2674538480,4.9546357,52.3395685,Arent Krijtstraat
2674538511,4.9660838,52.3374136,Nicolaas Lublinkstraat
2674538520,4.9589128,52.3386722,Schoolstraat
2674538521,4.9584798,52.338811,Schoolstraat
2674543283,4.9348027,52.351066,Hugo de Vrieslaan
2674543285,4.9404489,52.3476112,Kruislaan
2674543286,4.9478846,52.3428961,Brinkstraat
2674767992,4.912547,52.3772761,Muziekgebouw
2674855304,4.9340324,52.3729764,Rietlandpark
2674855327,4.9616697,52.3719663,Zuiderzeeweg
2674999700,4.889328,52.3692927,Spui
2677256524,4.9694809,52.3686404,Bob Haarmslaan
2677256600,4.9946247,52.3555154,Diemerparklaan
2678427768,4.9211099,52.3761672,Kattenburgerstraat
2678427769,4.9958806,52.3549103,Diemerparklaan
2678427770,5.0002302,52.3525961,Lumièrestraat
2678427771,4.9990167,52.3531807,Lumièrestraat
2724053032,4.4787164,51.9274843,Heer Bokelweg
2724053036,4.4788658,51.9275001,Heer Bokelweg
2724098599,4.4794337,51.9304385,Noordsingel
2724270068,4.4747526,51.9276489,Schiekade
2724270069,4.4739037,51.9282411,Schiekade
2724280534,4.4729629,51.9329319,Eudokiaplein
2725712319,4.4703473,51.9304838,Walenburgerweg
2725712320,4.4700411,51.930713,Walenburgerweg
2725735831,4.4752851,51.9348578,Van den Hoonaardstraat
2725735835,4.4757576,51.93516,Van den Hoonaardstraat
2725777455,4.4793955,51.9393103,Soetendaalseweg
2727819374,4.4795172,51.935211,Benthuizerstraat
2727819377,4.4792665,51.9354547,Benthuizerstraat
2729496654,4.4861913,51.9340059,Zwaanshals
2729496734,4.4865425,51.9339884,Zwaanshals
2732537528,4.8505535,52.3584105,Curacaostraat
2736170403,4.4864446,51.9292787,Noorderbrug
2736170416,4.4865293,51.9295998,Noorderbrug
2736346273,4.4793664,51.9395848,Soetendaalseweg
2736779617,4.4814675,51.9428772,"Rotterdam, Station Noord"
2736779635,4.4829253,51.9450891,Kootsekade
2736779637,4.4830309,51.9451538,Kootsekade
2736847722,4.4853407,51.9476451,Lommerrijk
2736847742,4.4854265,51.947666,Lommerrijk
2737697470,4.4745418,51.9453387,Bergpolderplein
2737697570,4.4681331,51.9448988,Kleiweg
2740689676,4.4892319,51.9512242,Bergse Plaslaan
2742483565,4.4921957,51.9537546,C.N.A. Looslaan
2742483691,4.4920776,51.9537219,C.N.A. Looslaan
2742483698,4.4944491,51.9576731,Bergse Dorpsstraat
2742483708,4.494433,51.9572941,Bergse Dorpsstraat
2742483765,4.4965289,51.9586278,Liduinaplein
2742602341,4.4967167,51.9585715,Liduinaplein
2742602350,4.5009244,51.9580413,De Montignyplein
2742809617,4.4648382,51.9343416,Schieweg
2742809825,4.4603448,51.9426233,Sint Franciscus Gasthuis
2742809828,4.4603467,51.9422889,Sint Franciscus Gasthuis
2742809899,4.465236,51.9484222,Melanchthonweg
2742809904,4.4659569,51.948506,Melanchthonweg
2742809994,4.4693639,51.952361,Teldersweg
2742810010,4.4674733,51.955626,Wilgenplaslaan
2742810051,4.4719658,51.9563206,Wilgenlei
2742810070,4.4757231,51.9592105,Meidoornweide
2748037970,4.4640604,51.9330445,Schieweg
2748038032,4.4587997,51.930378,Statenweg
2748038039,4.4553016,51.9292472,Vroesenpark
2754781602,4.467711,51.9258503,Rotterdam Centraal Blijdorpzijde
2756722119,4.4624968,51.9264631,Bentinckplein
2756722276,4.468077,51.9258944,Rotterdam Centraal Blijdorpzijde
2756744231,4.4605117,51.9185668,1e Middellandstraat
2758915211,4.4652103,51.9194684,Tiendplein
2761817956,4.4963749,51.9280273,Boezemweg
2761817969,4.4973132,51.9324577,Boezemsingel
2763733921,4.876516,52.3744189,Bloemgracht
2767653682,4.493954,51.9327581,Crooswijksestraat
2767653685,4.4935636,51.9328286,Crooswijksestraat
2768049110,4.4975464,51.9322525,Boezemsingel
2771923517,4.4964461,51.9283294,Boezemweg
2860443471,5.1058079,52.0895708,Centraal Station Jaarbeursplein
2916975079,5.0385568,52.009369,IJsselstein-Zuid
2941113425,4.8461556,52.3858895,Molenwerf
2987217067,4.9382411,52.3641725,Javaplein
3011895788,4.9381702,52.3734596,C. van Eesterenlaan
3078345542,4.9810143,52.3627073,Steigereiland
3078345543,4.9799507,52.3632345,Steigereiland
3081383133,4.381862,51.9890428,TU - Technopolis
3081383134,4.3821395,51.988542,TU - Technopolis
3081383135,4.3801123,51.9914843,TU - Kluyverpark
3081383136,4.3800128,51.9917254,TU - Kluyverpark
3097013989,5.0792372,52.0289582,
3113401408,4.3067689,52.0592069,Dynamostraat
3135826254,4.4093717,51.9144056,Rotterdamsedijk
3135826255,4.4082171,51.9145542,Rotterdamsedijk
3150030738,4.3238482,52.0809396,Centraal Station
3150030739,4.3245854,52.0812476,Centraal Station
3157939483,4.8900562,52.3731853,Dam
3157939509,4.890657,52.372357,Dam
3177570371,4.889077,52.3670188,Koningsplein
3178067303,4.8968175,52.3662338,Rembrandtplein
3185290417,4.875944,52.3718196,Rozengracht
3185460780,4.8768056,52.3724171,Marnixstraat
3187350106,4.8992727,52.3782776,Centraal Station
3187350107,4.8993435,52.3783007,Centraal Station
3294629035,4.9014137,52.3546169,Ceintuurbaan
3294629036,4.8933247,52.3418847,Dintelstraat
3294629037,4.8922722,52.34032,Europaplein
3294629038,4.890644,52.3369138,Station RAI
3294629045,4.8897727,52.3361962,Drentepark
3294945446,4.9107803,52.3470452,Amsteldijk
3294945448,4.8915179,52.3503034,Cornelis Troostplein
3294945449,4.8915803,52.3504669,Cornelis Troostplein
3294946408,4.8641586,52.3704221,Willem de Zwijgerlaan
3294946425,4.8604577,52.3713902,Admiraal de Ruijterweg
3294946637,4.8719975,52.3674565,Kinkerstraat
3295377806,4.8789667,52.3582583,Van Baerlestraat
3295383111,4.8699206,52.3708296,Bilderdijkstraat
3295383112,4.891254,52.3525071,De Pijp
3295383113,4.8905683,52.3527009,De Pijp
3295383114,4.8750893,52.3630125,Overtoom
3295383115,4.8749794,52.363227,Overtoom
3295383116,4.8911566,52.3474774,Scheldestraat
3295383117,4.8783154,52.3584525,Van Baerlestraat
3295383118,4.8781266,52.3587793,Van Baerlestraat
3295383119,4.9063511,52.3464226,Victorieplein
3295383152,4.8821149,52.3526503,Roelof Hartplein
3296373457,4.7945047,52.350942,Baden Powellweg
3296373458,4.7881617,52.3496886,Ecuplein
3296373460,4.8262421,52.3577864,Johan Huizingalaan
3296373861,4.8258939,52.3578028,Johan Huizingalaan
3296373862,4.8865692,52.3659967,Keizersgracht
3296373863,4.8829633,52.3642229,Leidseplein
3296373864,4.8085181,52.3538389,Louis Davidsstraat
3296373865,4.7745043,52.3538687,Matterhorn
3296373866,4.8098968,52.3563663,Meer en Vaart
3296373869,4.8845404,52.3650457,Prinsengracht
3296373870,4.8337835,52.3578935,Station Lelylaan
3296687013,4.8705509,52.3559863,Cornelis Schuytstraat
3296687016,4.8106661,52.3463027,Kasterleepark
3296687017,4.8250738,52.3467027,Louwesweg
3297465110,4.88118,52.3816379,Nieuwe Willemstraat
3297544661,4.9044611,52.3558031,Amsteldijk
3297544662,4.8754658,52.3786587,Frederik Hendrikplantsoen
3297544663,4.8942148,52.3531847,Tweede van der Helststraat
3298959766,4.9172479,52.3582372,Beukenweg
3299908038,4.9326307,52.3607982,Muiderpoortstation
3299908039,4.9139033,52.3584007,Camperstraat
3299908040,4.929758,52.3610963,Dapperstraat
3299908041,4.9249158,52.3599084,Linnaeusstraat
3300150225,4.8768645,52.346674,Stadionweg
3300150226,4.8768891,52.3471195,Stadionweg
3300150227,4.8688651,52.3346906,De Boelelaan / VU
3300150229,4.8726179,52.3086995,Onderuit
3300150230,4.8767862,52.3431091,Prinses Irenestraat
3300150231,4.8720626,52.3128551,Zonnestein
3300150817,4.8689982,52.3255599,Van Boshuizenstraat
3300514038,4.8586095,52.3647809,Witte de Withstraat
3300515588,4.8487284,52.3729839,Jan van Galenstraat
3301285111,4.9015572,52.3599331,Oosteinde
3301289966,4.9185538,52.3633586,Alexanderplein
3302706005,4.9148775,52.3620642,Korte 's-Gravesandestraat
3303180661,4.950978,52.3652343,Flevopark
3303180662,4.8979021,52.3594172,Frederiksplein
3303180663,4.9478697,52.3649411,Insulindeweg
3303180666,4.9433903,52.3621387,Soembawastraat
3303180667,4.8873395,52.3608307,Spiegelgracht
3306176726,4.9265233,52.3683184,Eerste Coehoornstraat
3306176727,4.9295997,52.3701978,Eerste Leeghwaterstraat
3306176728,4.9242477,52.3666491,Hoogte Kadijk
3306176729,4.9344045,52.372921,Rietlandpark
3306416869,4.8771245,52.3831209,De Wittenkade
3306416870,4.879161,52.3810671,Nassaukade
3306416871,4.8751459,52.3842995,Van Limburg Stirumplein
3306520722,4.8438221,52.3694322,Admiraal Helfrichstraat
3306520723,4.8117488,52.376502,Burgemeester van Leeuwenlaan
3306520724,4.8065746,52.3769374,Dr. H. Colijnstraat
3306520725,4.838086,52.371391,Jan Tooropstraat
3306520726,4.837912,52.3696957,Jan Voermanstraat
3306520727,4.8349977,52.3732226,Jan van Galenstraat
3306520728,4.8514777,52.3702289,Mercatorplein
3307084740,4.9275974,52.3659034,Pontanusstraat
3307084741,4.9325902,52.3658298,Zeeburgerdijk
3307343461,4.8663898,52.3351934,De Boelelaan/VU
3307343462,4.8575035,52.3490598,Haarlemmermeerstation
3307636848,4.7917476,52.3565018,Baden Powellweg
3307636849,4.8532406,52.3615934,Corantijnstraat
3307636850,4.7995659,52.3580714,Hoekenes
3307636851,4.8032054,52.3595387,Osdorpplein
3307636852,4.8531567,52.3637883,Postjesweg
3307636853,4.8076258,52.3594658,Ruimzicht
3307702376,4.8720137,52.346693,Minervaplein
3307702377,4.8666426,52.346366,Olympiaplein
3307702378,4.8586407,52.3452623,Olympiaweg
3308042636,4.3458728,51.9319948,De Loper
3308281967,4.8595117,52.2847258,Gondel
3308281969,4.8674156,52.2961484,Ouderkerkerlaan
3308281970,4.8327699,52.2825723,Sacharovlaan
3308281971,4.838643,52.2841176,Spinnerij
3308281972,4.863844,52.2904323,Sportlaan
3308281975,4.8305377,52.2743532,Westwijk
3349684193,4.9042996,52.3487192,Amstelkade
3371092710,4.8454674,52.3515879,Westlandgracht
3372170598,4.3570239,52.0080228,Station Delft
3460108483,4.4596304,51.9184031,1e Middellandstraat
3460149783,4.4467937,51.9165782,Mathenesserplein
3460149784,4.454238,51.9171995,Vierambachtsstraat
3460151912,4.4475224,51.9165253,Mathenesserplein
3461374681,4.5537227,51.8871977,Grote Hagen
3465115615,4.4423614,51.9164947,Mathenesserbrug
3465183366,4.4412041,51.9166312,Mathenesserbrug
3465236782,4.4354115,51.9174642,Huygensstraat
3465236784,4.4352576,51.9176814,Huygensstraat
3465296027,4.4335873,51.918699,Spartastraat
3465296045,4.4336129,51.9186788,Spartastraat
3467955958,4.4349899,51.9152976,P.C. Hooftplein
3468022988,4.4332424,51.9139465,"Rotterdam, Marconiplein"
3469142365,4.4324088,51.9133594,"Rotterdam, Marconiplein"
3469167322,4.4326076,51.9135747,"Rotterdam, Marconiplein"
3469167353,4.4321732,51.9134311,"Rotterdam, Marconiplein"
3469167378,4.4320877,51.9134469,"Rotterdam, Marconiplein"
3628810238,4.5519716,51.8906004,Prinsenplein
3643944233,4.5491523,51.8872042,Keizerswaard
3643944234,4.5490487,51.8875901,Keizerswaard
3643944235,4.5491256,51.8875999,Keizerswaard
3684257234,4.3538634,52.0023268,Krakeelpolderweg
3684257257,4.3540915,52.0023865,Krakeelpolderweg
3703235404,4.3574807,52.0074179,Station Delft
3735469931,4.9685823,52.3691619,Bob Haarmslaan
3788117787,4.2769779,52.0825811,Groot Hertoginnelaan
3788124865,4.2775038,52.0824049,Groot Hertoginnelaan
3880908877,4.4816937,51.9096455,Westerstraat
3914390508,4.503396,51.9594678,Burg. Van Kempensingel
3994262220,4.484166,51.89446,Brielselaan
3994262221,4.4729471,51.8912513,Dorpsweg
3994262222,4.4694739,51.8909082,Frans Bekkerstraat
3994262223,4.5054537,51.8956012,Hillevliet
3994262224,4.4648203,51.8830223,Kromme Zandweg
3994262225,4.4785325,51.8914018,Pleinweg
3994262226,4.5023089,51.8974053,Putsebocht
3994262227,4.5100482,51.8933926,Randweg
3994262228,4.5100702,51.8935234,Randweg
3994262229,4.4658565,51.8875995,Van Blommesteynweg
3999525620,4.5109693,51.8973448,Beijerlandselaan
3999525621,4.5207432,51.8875667,Beukendaal
3999525622,4.5521913,51.8834515,Bredenoord
3999525623,4.5442282,51.8815833,Kerstendijk
3999525624,4.5391518,51.8827228,Kreekhuizenlaan
3999525625,4.4984318,51.9060227,Lodewijk Pincoffsweg
3999525626,4.5218531,51.8777907,Molenvliet
3999525627,4.5098984,51.8937284,Randweg
3999525628,4.5212926,51.8825649,Smeetslandsedijk
3999525629,4.5327782,51.8806017,Station Lombardijen
3999525630,4.5033152,51.9039452,Vuurplaat
4001426521,4.4732971,51.9166217,Eendrachtsplein
4001426522,4.4820197,51.9128474,Leuvehaven
4001426523,4.4751618,51.9148164,Museumpark
4001426524,4.4780988,51.9116958,Vasteland
4001426525,4.4916302,51.907976,Wilhelminaplein
4002902577,4.4632021,51.9136828,'s-Gravendijkwal
4002902578,4.4689161,51.9161122,Bloemkwekersstraat
4002902579,4.4596428,51.9130882,Claes de Vrieselaan
4002902580,4.4724277,51.9169054,Eendrachtsplein
4002902581,4.456008,51.9124118,Heemraadsplein
4002902582,4.4658035,51.9145683,Mathenesserlaan
4002902583,4.4659853,51.915027,Mathenesserlaan
4002902584,4.4514914,51.9106765,Ruilstraat
4002902585,4.4521008,51.9110583,Ruilstraat
4002902586,4.4428577,51.9105046,Van Duylstraat
4002905697,4.4381898,51.9116894,Zeilmakersstraat
4002905698,4.44596,51.9096205,Delfshaven
4003285270,4.4672859,51.9083539,Euromast / Erasmus MC
4003285271,4.4672327,51.9083972,Euromast / Erasmus MC
4003285272,4.4715878,51.9096967,Kievitslaan
4003285273,4.4534751,51.9036974,Oostkousdijk
4003285274,4.4598394,51.9052975,Pieter de Hoochweg
4003285275,4.4464125,51.9044075,Schiemond
4003285276,4.4456438,51.906711,Spanjaardstraat
4003285277,4.4456523,51.9071298,Spanjaardstraat
4003285278,4.4792766,51.9088264,Westplein
4003285279,4.4821937,51.9090777,Willemskade
4003285280,4.4822188,51.9090639,Willemskade
4003694459,4.5106411,51.920518,Avenue Concordia
4003694460,4.4023646,51.9180823,Broersvest
4003694461,4.5235202,51.9079602,De Esch
4003694462,4.4242077,51.9135222,Het Witte Dorp
4003694463,4.4183727,51.913886,Hogenbanweg
4003694464,4.4023543,51.915387,Koemarkt
4003694465,4.5223825,51.9127147,Lage Filterweg
4003694466,4.5224803,51.9125411,Lage Filterweg
4003694467,4.5212436,51.9152945,Oude Plantage
4003694468,4.5055146,51.921679,Willem Ruyslaan
4004356703,4.4026895,51.9233084,'s Gravelandseweg
4004356704,4.4023676,51.9234123,'s Gravelandseweg
4004356705,4.5585074,51.8845883,Akkeroord
4004356706,4.3715306,51.9375764,Bachplein
4004356707,4.5683366,51.8979792,Beverwaardseweg
4004356708,4.368562,51.9424027,Boeier
4004356709,4.5391679,51.8933601,Dwarsdijk
4004356710,4.3747625,51.9343683,"Schiedam, Hof van Spaland"
4004356711,4.34149,51.9313912,Holysingel
4004356712,4.5734925,51.8982698,Limbrichthoek
4004356713,4.5316662,51.8943799,Noorderhelling
4004356714,4.5699763,51.8923292,Oude Watering
4004356715,4.3530683,51.9336102,Over de Dammen
4004356716,4.3584941,51.934904,Parijslaan
4004356717,4.3895299,51.9233461,Piersonstraat
4004356718,4.3905962,51.923796,Piersonstraat
4004356719,4.3758978,51.9293571,Prinses Beatrixlaan
4004356720,4.4065584,51.9208788,Station Schiedam Centrum
4004356721,4.5672041,51.8948658,Schinnenbaan
4004356722,4.3669634,51.9374878,Schubertplein
4004356723,4.3815065,51.9238242,"Schiedam, Station Nieuwland"
4005779207,4.5050681,51.883397,Groene Hilledijk
4005779208,4.4956744,51.8740169,Langenhorst
4005779209,4.5016013,51.8544675,Meerwede
4005779210,4.5010288,51.8484185,Middeldijkerplein
4005779211,4.5081956,51.8786459,Paasweide
4005779212,4.502505,51.8601721,Vrijenburg
4005779213,4.5007354,51.8453634,Waterkant
4040539278,4.2578335,52.0349474,De Dreef
4072555706,4.4809411,51.9451291,Kootsekade
4073797534,4.4823391,51.9448644,Kootsekade
4103562361,4.8688814,52.3315267,A. J. Ernststraat
4103562367,4.8688654,52.3344942,De Boelelaan / VU
4103567892,4.8723165,52.3121686,Zonnestein
4249280290,4.855406,52.3156718,Amsterdamseweg
4249280292,4.8562313,52.3493132,Haarlemmermeerstation
4249280294,4.8543795,52.3352719,Jollenpad
4249280297,4.8560952,52.3305598,Koenenkade
4249280298,4.8403296,52.292425,Noorddammerlaan
4390408034,4.5134004,51.9254427,Voorschoterlaan
4422115060,4.8392657,52.3882352,Station Sloterdijk
4438743537,4.3919399,52.0458833,Nootdorp Centrum
4489578679,4.2916567,52.073064,Loosduinseweg
4519556579,4.8565037,52.3218182,Kalfjeslaan
4537737348,4.2711421,52.0914954,Willem de Zwijgerlaan
4541648287,4.8465973,52.3858579,Molenwerf
4621136127,4.9273623,52.3568295,Oostpoort
4621705536,4.9267879,52.3575664,Oostpoort
4659272145,4.4731115,51.9324465,Eudokiaplein
4742257321,4.8502128,52.3515377,Hoofddorpplein
4815510935,4.2885892,52.1168114,Zwarte Pad
4849892813,4.2602529,52.0629005,Thorbeckelaan
4849892814,4.260065,52.0628594,Thorbeckelaan
4851477406,4.8907086,52.3527486,De Pijp
4851477407,4.8907137,52.3570276,Marie Heinekenplein
4851478926,4.8907673,52.3571177,Marie Heinekenplein
4957591472,4.8509865,52.3442966,Jan Wilsbrug
4957591524,4.8477382,52.3013966,Station Amstelveen
4957591538,4.8453672,52.2994491,Handweg
4957592283,4.8564164,52.3492921,Haarlemmermeerstation
4957592307,4.8564951,52.3214358,Kalfjeslaan
4957592331,4.8565395,52.3274177,Van Nijenrodeweg
4957592436,4.8506593,52.3085646,Molenweg
4957592454,4.8507838,52.3109438,Karselaan
4957592461,4.851035,52.3115129,Karselaan
4957593819,4.8391034,52.2908393,Bovenkerk
4957593836,4.8391796,52.2910359,Bovenkerk
5004454871,4.8810924,52.3632102,Leidseplein
5069966609,4.3429351,52.084608,Stuyvesantplein
5140163335,4.3533371,52.0118193,Prinsenhof
5140163336,4.3534592,52.0116519,Prinsenhof
5162821556,4.8731745,52.3408067,Station Zuid
5290665021,4.3571017,52.0080493,Station Delft
5291956551,4.3576094,52.0074609,Station Delft
5363751233,4.3233213,52.070919,Station Hollands Spoor
5363751265,4.3234315,52.0708412,Station Hollands Spoor
5363782878,4.3209636,52.0697511,Station Hollands Spoor
5363782879,4.3208325,52.0698273,Station Hollands Spoor
5392832987,4.4877116,51.9327984,Zaagmolenbrug
5392832988,4.4878069,51.9327111,Zaagmolenbrug
5399178947,4.8989479,52.3620971,Prinsengracht
5399178948,4.8989832,52.3621204,Prinsengracht
5436424212,4.2784219,52.0457197,Leyweg
5454051233,4.8785014,52.355485,Museumplein
5457873105,4.3140117,52.0782277,Centrum
5487043827,4.9697205,52.3364262,Sniep
5509458843,4.9180247,52.3472197,Amstelstation
5538247695,4.2523541,52.0877159,Markenseplein
5579120492,4.8840667,52.3740304,Westermarkt
5579136840,4.8748076,52.3626237,Eerste Constantijn Huygensstraat
5628416488,4.3931853,52.0450993,Nootdorp Centrum
5751467893,4.3686693,52.0056012,Mijnbouwplein
5751467894,4.3681513,52.0059467,Mijnbouwplein
5792105369,4.899765,52.3596484,Frederiksplein
5792762173,4.8925433,52.3594749,Vijzelgracht
5958487370,4.5256644,51.9222992,'s-Gravenwetering
6063016778,4.8677447,52.3660454,Ten Katestraat
6063016783,4.862937,52.3648906,Jan Pieter Heijestraat
6063021106,4.8673496,52.3658961,Ten Katestraat
6116643121,4.5023037,51.9296499,Vlietlaan
6116643122,4.506486,51.9287745,Jericholaan
6116643124,4.5102357,51.9271011,Mecklenburglaan
6116643127,4.5201284,51.9237445,Essenlaan
6116643128,4.520302,51.9237172,Essenlaan
6116643130,4.5259716,51.9225573,
6116643131,4.525765,51.922219,
6116643136,4.5226336,51.9174414,Erasmus Universiteit
6137626904,4.4725066,51.9233699,Rotterdam Centraal F
6137626907,4.4717974,51.9232575,Rotterdam Centraal E
6139377553,4.8716287,52.3136764,Biesbosch
6139377554,4.8716213,52.3138328,Biesbosch
6173657869,4.3891329,52.0556438,Station Ypenburg
6238920953,4.3373217,52.0574649,Herenstraat
